time(millisecond),datetime(utc),latitude,longitude,height_above_takeoff(feet),height_above_ground_at_drone_location(feet),ground_elevation_at_drone_location(feet),altitude_above_seaLevel(feet),speed(mph),distance(feet),satellites,gpslevel,voltage(v),max_altitude(feet),max_ascent(feet),max_speed(mph),max_distance(feet), xSpeed(mph), ySpeed(mph), zSpeed(mph), compass_heading(degrees), pitch(degrees), roll(degrees),isPhoto,isVideo,rc_elevator,rc_aileron,rc_throttle,rc_rudder,gimbal_heading(degrees),gimbal_pitch(degrees),battery_percent,voltageCell1,voltageCell2,voltageCell3,voltageCell4,voltageCell5,voltageCell6,current(A),battery_temperature(f),altitude(feet),ascent(feet),flycStateRaw,flycState,message
35100,2019-10-04 17:50:04,38.4247561593682,-92.1275626069837,21.653544,Available with any HD 360 subscription,Available with any HD 360 subscription,767.06428668516,0,0,16,5,0,767.06428668516,21.653544,0,0,0,0,0,234.6, 3.2, -2.6,0,0,1024,1024,1024,1024,234.6,-89.9,71,3.767,3.743,3.75,3.727,0,0,0,87.71,767.06428668516,21.653544,6,P-GPS,
35200,2019-10-04 17:50:04,38.4247562066859,-92.1275625714753,21.981628,,,767.39237068516,0,0.0200262801684,16,5,0,767.39237068516,21.981628,0,0.0200262801684,0,0,0,234.6, 3.3, -2.5,0,0,1024,1024,1024,1024,234.6,-89.9,71,3.767,3.743,3.75,3.727,0,0,0,87.71,767.39237068516,21.981628,6,P-GPS,
35300,2019-10-04 17:50:04,38.4247562564333,-92.1275625612566,21.981628,,,767.39237068516,0,0.037749016956,16,5,0,767.39237068516,21.981628,0,0.037749016956,0,0,0,234.6, 3.4, -2.5,0,0,1024,1024,1024,1024,234.6,-89.9,71,3.767,3.743,3.75,3.727,0,0,0,87.71,767.39237068516,21.981628,6,P-GPS,
35400,2019-10-04 17:50:04,38.4247562989983,-92.1275625519483,21.653544,,,767.06428668516,0,0.053317587008,16,5,0,767.39237068516,21.981628,0,0.053317587008,0,0,0,234.6, 3.3, -2.7,0,0,1024,1024,1024,1024,234.6,-89.9,71,3.767,3.743,3.75,3.727,0,0,0,87.71,767.06428668516,21.653544,6,P-GPS,
35500,2019-10-04 17:50:04,38.4247563030369,-92.1275625492282,21.653544,,,767.06428668516,0,0.05495571042,16,5,0,767.39237068516,21.981628,0,0.05495571042,0,0,0,234.6, 3.2, -2.7,0,0,1024,1024,1024,1024,234.6,-89.9,71,3.767,3.743,3.75,3.727,0,0,0,87.71,767.06428668516,21.653544,6,P-GPS,
35600,2019-10-04 17:50:04,38.4247562424026,-92.127562568881,21.981628,,,767.39237068516,0,0.0321932096916,16,5,14.873,767.39237068516,21.981628,0,0.05495571042,0,0,0,234.6, 3.2, -2.7,0,0,1024,1024,1024,1024,234.6,-89.9,71,3.767,3.743,3.75,3.727,0,0,16.446,87.71,767.39237068516,21.981628,6,P-GPS,Setting new Return-To-Home altitude to 30m (98 ft). Data Recorder File Index is 75. Setting new Maximum Flight Altitude to 120m (394 ft)
35700,2019-10-04 17:50:04,38.424756278839,-92.1275626128913,21.981628,,,767.39237068516,0,0.043621392472,16,5,14.873,767.39237068516,21.981628,0,0.05495571042,0,0,0,234.5, 3, -2.7,0,0,1024,1024,1024,1024,234.6,-89.9,71,3.767,3.743,3.75,3.727,0,0,16.446,87.71,767.39237068516,21.981628,6,P-GPS,
35800,2019-10-04 17:50:04,38.4247563056269,-92.1275626575605,21.653544,,,767.06428668516,0,0.055286091008,16,5,14.873,767.39237068516,21.981628,0,0.055286091008,0,0,0,234.5, 3, -2.7,0,0,1024,1024,1024,1024,234.6,-89.9,71,3.767,3.743,3.75,3.727,0,0,16.446,87.71,767.06428668516,21.653544,6,P-GPS,Obstacle Avoidance Disabled. Fly with caution.
35900,2019-10-04 17:50:05,38.4247562967421,-92.1275627169153,21.981628,,,767.39237068516,0,0.059156169872,16,5,14.873,767.39237068516,21.981628,0,0.059156169872,0,0,0,234.6, 3, -2.6,0,0,1024,1024,1024,1024,234.6,-89.9,71,3.767,3.743,3.75,3.727,0,0,16.446,87.71,767.39237068516,21.981628,6,P-GPS,
36000,2019-10-04 17:50:05,38.4247562266116,-92.127562931505,21.653544,,,767.06428668516,0,0.0959481658,16,5,14.873,767.39237068516,21.981628,0,0.0959481658,0,0,0,234.6, 3.1, -2.5,0,0,1024,1024,1024,1024,234.6,-89.9,71,3.767,3.743,3.75,3.727,0,0,16.446,87.71,767.06428668516,21.653544,6,P-GPS,
36100,2019-10-04 17:50:05,38.4247561889098,-92.1275628958544,21.653544,,,767.06428668516,0,0.083269031536,16,5,14.873,767.39237068516,21.981628,0,0.0959481658,0,0,0,234.6, 3.2, -2.3,0,0,1024,1024,1024,1024,234.6,-89.9,71,3.767,3.743,3.75,3.727,0,0,16.446,87.71,767.06428668516,21.653544,6,P-GPS,
36200,2019-10-04 17:50:05,38.4247561493223,-92.1275628665816,21.653544,,,767.06428668516,0,0.074291997128,16,5,14.873,767.39237068516,21.981628,0,0.0959481658,0,0,0,234.5, 3.3, -2.3,0,0,1024,1024,1024,1024,234.6,-89.9,71,3.767,3.743,3.75,3.727,0,0,16.446,87.71,767.06428668516,21.653544,6,P-GPS,
36300,2019-10-04 17:50:05,38.4247561101737,-92.1275628557068,21.653544,,,767.06428668516,0,0.073323821244,16,5,14.873,767.39237068516,21.981628,0,0.0959481658,0,0,0,234.5, 3.3, -2.4,0,0,1024,1024,1024,1024,234.6,-89.9,71,3.767,3.743,3.75,3.727,0,0,16.446,87.71,767.06428668516,21.653544,6,P-GPS,
36400,2019-10-04 17:50:05,38.4247559780524,-92.1275627323663,21.653544,,,767.06428668516,0,0.075236879048,16,5,14.873,767.39237068516,21.981628,0,0.0959481658,0,0,0,234.5, 3.5, -2.3,0,0,1024,1024,1024,1024,234.6,-89.9,71,3.767,3.743,3.75,3.727,0,0,16.446,87.71,767.06428668516,21.653544,6,P-GPS,
36500,2019-10-04 17:50:05,38.4247558949057,-92.1275627359803,21.653544,,,767.06428668516,0,0.10329396656,16,5,14.873,767.39237068516,21.981628,0,0.10329396656,0,0,0,234.5, 3.6, -2.1,0,0,1024,1024,1024,1024,234.6,-89.9,71,3.767,3.743,3.75,3.727,0,0,16.446,87.71,767.06428668516,21.653544,6,P-GPS,
36600,2019-10-04 17:50:05,38.4247558155646,-92.1275627382712,21.653544,,,767.06428668516,0,0.130929466132,16,5,14.887,767.39237068516,21.981628,0,0.130929466132,0,0,0,234.5, 3.7, -1.9,0,0,1024,1024,1024,1024,234.6,-89.9,71,3.763,3.74,3.748,3.722,0,0,16.792,89.51,767.06428668516,21.653544,6,P-GPS,
36700,2019-10-04 17:50:05,38.4247557414207,-92.127562739567,21.981628,,,767.39237068516,0,0.157126317364,16,5,14.887,767.39237068516,21.981628,0,0.157126317364,0,0,0,234.5, 3.6, -1.8,0,0,1024,1024,1024,1024,234.6,-89.9,71,3.763,3.74,3.748,3.722,0,0,16.792,89.51,767.39237068516,21.981628,6,P-GPS,
36800,2019-10-04 17:50:05,38.4247555692397,-92.1275627455648,21.981628,,,767.39237068516,0,0.218921266848,16,5,14.887,767.39237068516,21.981628,0,0.218921266848,0,0,0,234.5, 3.6, -1.9,0,0,1024,1024,1077,1024,234.6,-89.9,71,3.763,3.74,3.748,3.722,0,0,16.792,89.51,767.39237068516,21.981628,6,P-GPS,
36900,2019-10-04 17:50:06,38.4247555268285,-92.1275627960021,21.653544,,,767.06428668516,0,0.237021661128,16,5,14.887,767.39237068516,21.981628,0,0.237021661128,0,0,0,234.5, 3.6, -2.1,0,0,1024,1024,1184,1023,234.6,-89.9,71,3.763,3.74,3.748,3.722,0,0,16.792,89.51,767.06428668516,21.653544,6,P-GPS,
37000,2019-10-04 17:50:06,38.4247554933501,-92.127562846393,21.653544,,,767.06428668516,0,0.252447842724,16,5,14.887,767.39237068516,21.981628,0,0.252447842724,0,0,0,234.5, 3.6, -2.1,0,0,1024,1024,1217,1024,234.6,-89.9,71,3.763,3.74,3.748,3.722,0,0,16.792,89.51,767.06428668516,21.653544,6,P-GPS,
37100,2019-10-04 17:50:06,38.4247554732926,-92.1275629060785,21.653544,,,767.06428668516,0,0.264510835236,16,5,14.887,767.39237068516,21.981628,0,0.264510835236,0,0,0,234.6, 3.8, -2.3,0,0,1024,1024,1237,1024,234.6,-89.9,71,3.763,3.74,3.748,3.722,0,0,16.792,89.51,767.06428668516,21.653544,6,P-GPS,
37200,2019-10-04 17:50:06,38.424755456373,-92.1275629554989,21.653544,,,767.06428668516,0,0.275153224028,16,5,14.887,767.39237068516,21.981628,0,0.275153224028,0,0,-0.671082,234.6, 3.7, -2.3,0,0,1024,1024,1247,1024,234.6,-89.9,71,3.763,3.74,3.748,3.722,0,0,16.792,89.51,767.06428668516,21.653544,6,P-GPS,
37300,2019-10-04 17:50:06,38.4247554485874,-92.127563303224,21.981628,,,767.39237068516,0,0.326887149568,16,5,14.887,767.39237068516,21.981628,0,0.326887149568,0,0,-1.11847,234.6, 3.5, -1.9,0,0,1024,1024,1251,1024,234.6,-89.9,71,3.763,3.74,3.748,3.722,0,0,16.792,89.51,767.39237068516,21.981628,6,P-GPS,
37400,2019-10-04 17:50:06,38.4247554380449,-92.1275633767368,21.981628,,,767.39237068516,0,0.34303150704,16,5,14.887,767.39237068516,21.981628,0,0.34303150704,0,0,-1.565858,234.6, 3.4, -1.8,0,0,1024,1024,1246,1024,234.6,-89.9,71,3.763,3.74,3.748,3.722,0,0,16.792,89.51,767.39237068516,21.981628,6,P-GPS,
37500,2019-10-04 17:50:06,38.4247554625017,-92.1275634143037,22.637796,,,768.04853868516,0,0.3433563102,16,5,14.887,768.04853868516,22.637796,0,0.3433563102,0,0,-2.013246,234.6, 3.2, -1.8,0,0,1024,1024,1253,1024,234.6,-89.9,71,3.763,3.74,3.748,3.722,0,0,16.792,89.51,768.04853868516,22.637796,6,P-GPS,
37600,2019-10-04 17:50:06,38.4247554935154,-92.1275634529231,22.637796,,,768.04853868516,0,0.34275919732,16,5,14.899,768.04853868516,22.637796,0,0.3433563102,0,0,-2.013246,234.5, 3, -1.9,0,0,1024,1024,1308,1024,234.6,-89.9,71,3.763,3.738,3.748,3.725,0,0,16.442,89.51,768.04853868516,22.637796,6,P-GPS,
37700,2019-10-04 17:50:06,38.4247556915488,-92.127563477144,22.96588,,,768.37662268516,0,0.301652896792,16,5,14.899,768.37662268516,22.96588,0,0.3433563102,0,0,-2.23694,234.5, 2.9, -1.8,0,0,1024,1024,1353,1024,234.6,-89.9,71,3.763,3.738,3.748,3.725,0,0,16.442,89.51,768.37662268516,22.96588,6,P-GPS,
37800,2019-10-04 17:50:07,38.4247557431502,-92.1275635053971,23.293964,,,768.70470668516,0,0.298335967552,16,5,14.899,768.70470668516,23.293964,0,0.3433563102,0,0,-2.23694,234.5, 3.3, -1.6,0,0,1024,1024,1404,1024,234.6,-89.9,71,3.763,3.738,3.748,3.725,0,0,16.442,89.51,768.70470668516,23.293964,6,P-GPS,
37900,2019-10-04 17:50:07,38.4247557170608,-92.127563511373,23.622048,,,769.03279068516,0,0.304739511064,16,5,14.899,769.03279068516,23.622048,0,0.3433563102,0,0,-2.684328,234.5, 3.3, -1.7,0,0,1024,1024,1448,1024,234.6,-89.9,71,3.763,3.738,3.748,3.725,0,0,16.442,89.51,769.03279068516,23.622048,6,P-GPS,
38000,2019-10-04 17:50:07,38.4247556999361,-92.1275635153424,23.950132,,,769.36087468516,0,0.309046269732,16,5,14.899,769.36087468516,23.950132,0,0.3433563102,0,0,-3.131716,234.3, 3, -1.8,0,0,1024,1024,1475,1024,234.6,-89.9,71,3.763,3.738,3.748,3.725,0,0,16.442,89.51,769.36087468516,23.950132,6,P-GPS,
38100,2019-10-04 17:50:07,38.4247557546836,-92.1275634368078,24.6063,,,770.01704268516,0,0.27939141314,16,5,14.899,770.01704268516,24.6063,0,0.3433563102,0,0,-4.026492,234.3, 3.1, -1.4,0,0,1024,1024,1491,1024,234.6,-89.9,71,3.763,3.738,3.748,3.725,0,0,16.442,89.51,770.01704268516,24.6063,6,P-GPS,
38200,2019-10-04 17:50:07,38.4247558032357,-92.1275634440494,25.262468,,,770.67321068516,0,0.27226542866,16,5,14.899,770.67321068516,25.262468,0,0.3433563102,0,0,-4.921268,234.3, 3.4, -1,0,0,1024,1024,1482,1024,234.6,-89.9,71,3.763,3.738,3.748,3.725,0,0,16.442,89.51,770.67321068516,25.262468,6,P-GPS,
38300,2019-10-04 17:50:07,38.4247558906522,-92.1275635006021,26.24672,,,771.65746268516,0,0.273594496944,16,5,14.899,771.65746268516,26.24672,0,0.3433563102,0,0,-5.59235,234.5, 3.5, -1,0,0,1024,1024,1478,1024,234.6,-89.9,71,3.763,3.738,3.748,3.725,0,0,16.442,89.51,771.65746268516,26.24672,6,P-GPS,
38400,2019-10-04 17:50:07,38.4247559883311,-92.1275635638525,26.902888,,,772.31363068516,0,0.280532489292,16,5,14.899,772.31363068516,26.902888,0,0.3433563102,0,0,-6.039738,234.5, 3.7, -0.9,0,0,1024,1024,1483,1024,234.6,-89.9,71,3.763,3.738,3.748,3.725,0,0,16.442,89.51,772.31363068516,26.902888,6,P-GPS,
38500,2019-10-04 17:50:07,38.4247560773427,-92.1275637373569,27.88714,,,773.29788268516,0,0.32447999726,16,5,14.899,773.29788268516,27.88714,0,0.3433563102,0,0,-6.263432,234.5, 3.7, -1,0,0,1024,1024,1482,1024,234.6,-89.9,71,3.763,3.738,3.748,3.725,0,0,16.442,89.51,773.29788268516,27.88714,6,P-GPS,
38600,2019-10-04 17:50:07,38.4247561737865,-92.1275638160911,28.543308,,,773.95405068516,0,0.34564305568,16,5,14.711,773.95405068516,28.543308,0,0.34564305568,0,0,-6.487126,234.4, 4, -1.1,0,0,1024,1024,1489,1024,234.6,-89.9,71,3.73,3.706,3.716,3.687,0,0,19.634,89.51,773.95405068516,28.543308,6,P-GPS,
38700,2019-10-04 17:50:07,38.4247563709324,-92.1275638467827,29.52756,,,774.93830268516,0,0.36268373864,16,5,14.711,774.93830268516,29.52756,0,0.36268373864,0,0,-6.487126,234.4, 3.7, -1.2,0,0,1024,1024,1492,1024,234.6,-89.9,71,3.73,3.706,3.716,3.687,0,0,19.634,89.51,774.93830268516,29.52756,6,P-GPS,
38800,2019-10-04 17:50:07,38.4247565721096,-92.1275638724333,30.511812,,,775.92255468516,0,0.39180119364,16,5,14.711,775.92255468516,30.511812,0,0.39180119364,0,0,-6.71082,234.4, 3.3, -1.1,0,0,1024,1024,1493,1024,234.6,-89.9,71,3.73,3.706,3.716,3.687,0,0,19.634,89.51,775.92255468516,30.511812,6,P-GPS,
38900,2019-10-04 17:50:08,38.4247567555033,-92.127563923524,31.496064,,,776.90680668516,0,0.43464240236,16,5,14.711,776.90680668516,31.496064,0,0.43464240236,0,0,-6.71082,234.5, 2.8, -1.1,0,0,1024,1024,1493,1024,234.6,-89.9,71,3.73,3.706,3.716,3.687,0,0,19.634,89.51,776.90680668516,31.496064,6,P-GPS,
39000,2019-10-04 17:50:08,38.4247570061966,-92.1275639130155,32.8084,,,778.21914268516,0,0.484580068,16,5,14.711,778.21914268516,32.8084,0,0.484580068,0,0,-6.71082,234.5, 2.5, -0.9,0,0,1024,1024,1493,1024,234.6,-89.9,71,3.73,3.706,3.716,3.687,0,0,19.634,89.51,778.21914268516,32.8084,6,P-GPS,
39100,2019-10-04 17:50:08,38.4247572433977,-92.127563994478,33.792652,,,779.20339468516,0,0.56009844312,16,5,14.711,779.20339468516,33.792652,0,0.56009844312,0,0,-6.934514,234.5, 2.7, -0.8,0,0,1024,1024,1492,1024,234.6,-89.9,71,3.73,3.706,3.716,3.687,0,0,19.634,89.51,779.20339468516,33.792652,6,P-GPS,
39200,2019-10-04 17:50:08,38.4247574723342,-92.1275640906971,34.776904,,,780.18764668516,0,0.63979004672,16,5,14.711,780.18764668516,34.776904,0,0.63979004672,0,0,-6.71082,234.4, 2.9, -0.9,0,0,1024,1024,1489,1024,234.6,-89.9,71,3.73,3.706,3.716,3.687,0,0,19.634,89.51,780.18764668516,34.776904,6,P-GPS,
39300,2019-10-04 17:50:08,38.4247576950552,-92.1275642055985,35.433072,,,780.84381468516,0,0.72299214912,16,5,14.711,780.84381468516,35.433072,0,0.72299214912,0,0,-6.71082,234.4, 3, -1.1,0,0,1024,1024,1489,1024,234.6,-89.9,71,3.73,3.706,3.716,3.687,0,0,19.634,89.51,780.84381468516,35.433072,6,P-GPS,
39400,2019-10-04 17:50:08,38.4247580126714,-92.1275643778209,36.417324,,,781.82806668516,0.223694,0.84463913464,16,5,14.711,781.82806668516,36.417324,0.223694,0.84463913464,0,-0.223694,-6.71082,234.5, 2.9, -1.5,0,0,1024,1024,1490,1024,234.6,-89.9,71,3.73,3.706,3.716,3.687,0,0,19.634,89.51,781.82806668516,36.417324,6,P-GPS,
39500,2019-10-04 17:50:08,38.4247582564568,-92.1275645738266,37.401576,,,782.81231868516,0.223694,0.94945541096,16,5,14.711,782.81231868516,37.401576,0.223694,0.94945541096,0,-0.223694,-6.71082,234.5, 3.1, -2.3,0,0,1024,1024,1494,1024,234.6,-89.9,71,3.73,3.706,3.716,3.687,0,0,19.634,89.51,782.81231868516,37.401576,6,P-GPS,
39600,2019-10-04 17:50:08,38.4247584704511,-92.1275647676755,38.385828,,,783.79657068516,0.223694,1.04518047964,16,5,14.491,783.79657068516,38.385828,0.223694,1.04518047964,0,-0.223694,-6.71082,234.4, 3.5, -2.6,0,0,1024,1024,1495,1024,234.6,-89.9,71,3.73,3.706,3.716,3.687,0,0,19.634,89.51,783.79657068516,38.385828,6,P-GPS,
39700,2019-10-04 17:50:08,38.424758629962,-92.1275649848486,39.37008,,,784.78082268516,0.3131716,1.1289206398,16,5,14.491,784.78082268516,39.37008,0.3131716,1.1289206398,0.223694,-0.223694,-6.71082,234.3, 3.6, -2.5,0,0,1024,1024,1494,1024,234.6,-89.9,71,3.73,3.706,3.716,3.687,0,0,19.634,89.51,784.78082268516,39.37008,6,P-GPS,
39800,2019-10-04 17:50:08,38.4247587350618,-92.1275653506409,40.682416,,,786.09315868516,0.3131716,1.22397641712,16,5,14.491,786.09315868516,40.682416,0.3131716,1.22397641712,0.223694,-0.223694,-6.71082,234.3, 3.5, -2.8,0,0,1024,1024,1495,1024,234.6,-89.9,71,3.73,3.706,3.716,3.687,0,0,19.634,89.51,786.09315868516,40.682416,6,P-GPS,
39900,2019-10-04 17:50:09,38.4247589381337,-92.1275655091235,41.666668,,,787.07741068516,0,1.30994754848,16,5,14.491,787.07741068516,41.666668,0.3131716,1.30994754848,0,0,-6.71082,234.4, 3.2, -3.3,0,0,1024,1024,1493,1024,234.6,-89.9,71,3.73,3.706,3.716,3.687,0,0,19.634,89.51,787.07741068516,41.666668,6,P-GPS,
40000,2019-10-04 17:50:09,38.4247591001818,-92.1275656437023,42.322836,,,787.73357868516,0,1.38008862684,16,5,14.491,787.73357868516,42.322836,0.3131716,1.38008862684,0,0,-6.71082,234.5, 2.9, -3.3,0,0,1024,1024,1494,1024,234.6,-89.9,71,3.73,3.706,3.716,3.687,0,0,19.634,89.51,787.73357868516,42.322836,6,P-GPS,
40100,2019-10-04 17:50:09,38.424759171039,-92.1275657487514,43.307088,,,788.71783068516,0,1.41908797192,16,5,14.491,788.71783068516,43.307088,0.3131716,1.41908797192,0,0,-6.71082,234.5, 2.8, -3.1,0,0,1024,1024,1493,1024,234.6,-89.9,71,3.73,3.706,3.716,3.687,0,0,19.634,89.51,788.71783068516,43.307088,6,P-GPS,
40200,2019-10-04 17:50:09,38.4247591457057,-92.1275658196699,44.29134,,,789.70208268516,0,1.42492130544,16,5,14.491,789.70208268516,44.29134,0.3131716,1.42492130544,0,0,-6.71082,234.5, 3.2, -3.1,0,0,1024,1024,1493,1024,234.6,-89.9,71,3.73,3.706,3.716,3.687,0,0,19.634,89.51,789.70208268516,44.29134,6,P-GPS,
40300,2019-10-04 17:50:09,38.4247591892035,-92.1275659138742,45.603676,,,791.01441868516,0,1.4544455846,16,5,14.491,791.01441868516,45.603676,0.3131716,1.4544455846,0,0,-6.71082,234.4, 4, -2.8,0,0,1024,1024,1492,1024,234.6,-89.9,71,3.73,3.706,3.716,3.687,0,0,19.634,89.51,791.01441868516,45.603676,6,P-GPS,
40400,2019-10-04 17:50:09,38.4247592105911,-92.1275659917418,46.587928,,,791.99867068516,0,1.47488849864,16,5,14.491,791.99867068516,46.587928,0.3131716,1.47488849864,0,0,-6.71082,234.4, 4.3, -2.3,0,0,1024,1024,1492,1024,234.6,-89.9,71,3.73,3.706,3.716,3.687,0,0,19.634,89.51,791.99867068516,46.587928,6,P-GPS,
40500,2019-10-04 17:50:09,38.424759222896,-92.127566084891,47.57218,,,792.98292268516,0,1.49584322372,16,5,14.491,792.98292268516,47.57218,0.3131716,1.49584322372,0,0,-6.71082,234.4, 4, -2.4,0,0,1024,1024,1467,1024,234.6,-89.9,71,3.73,3.706,3.716,3.687,0,0,19.634,89.51,792.98292268516,47.57218,6,P-GPS,
40600,2019-10-04 17:50:09,38.4247592186576,-92.1275661604677,48.556432,,,793.96717468516,0,1.50914046824,16,5,14.685,793.96717468516,48.556432,0.3131716,1.50914046824,0,0,-6.71082,234.4, 4.1, -2.2,0,0,1024,1024,1473,1024,234.6,-89.9,71,3.699,3.676,3.689,3.661,0,0,22.592,89.51,793.96717468516,48.556432,6,P-GPS,
40700,2019-10-04 17:50:09,38.4247590656172,-92.1275662971187,49.540684,,,794.95142668516,0,1.49560700324,16,5,14.685,794.95142668516,49.540684,0.3131716,1.50914046824,0,0,-6.71082,234.4, 3.9, -1.8,0,0,1024,1024,1470,1024,234.6,-89.9,71,3.699,3.676,3.689,3.661,0,0,22.592,89.51,794.95142668516,49.540684,6,P-GPS,
40800,2019-10-04 17:50:09,38.4247590028834,-92.1275663761454,50.524936,,,795.93567868516,0,1.49565621584,16,5,14.685,795.93567868516,50.524936,0.3131716,1.50914046824,0,0,-6.487126,234.4, 4, -1.7,0,0,1024,1024,1464,1024,234.6,-89.9,71,3.699,3.676,3.689,3.661,0,0,22.592,89.51,795.93567868516,50.524936,6,P-GPS,
40900,2019-10-04 17:50:10,38.424758976639,-92.1275664252159,51.509188,,,796.91993068516,0,1.49920936556,16,5,14.685,796.91993068516,51.509188,0.3131716,1.50914046824,0,0,-6.487126,234.4, 4.1, -1.9,0,0,1024,1024,1478,1024,234.6,-89.9,71,3.699,3.676,3.689,3.661,0,0,22.592,89.51,796.91993068516,51.509188,6,P-GPS,
41000,2019-10-04 17:50:10,38.4247589499016,-92.1275664566401,52.165356,,,797.57609868516,0,1.49912078288,16,5,14.685,797.57609868516,52.165356,0.3131716,1.50914046824,0,0,-6.263432,234.4, 4.2, -2.1,0,0,1024,1024,1486,1024,234.6,-89.9,71,3.699,3.676,3.689,3.661,0,0,22.592,89.51,797.57609868516,52.165356,6,P-GPS,
41100,2019-10-04 17:50:10,38.4247589632834,-92.1275663806233,53.477692,,,798.88843468516,0,1.48660109744,16,5,14.685,798.88843468516,53.477692,0.3131716,1.50914046824,0,0,-6.263432,234.4, 4.1, -2.2,0,0,1024,1024,1488,1024,234.6,-89.9,71,3.699,3.676,3.689,3.661,0,0,22.592,89.51,798.88843468516,53.477692,6,P-GPS,
41200,2019-10-04 17:50:10,38.4247589380978,-92.1275663622553,54.13386,,,799.54460268516,0,1.47646986352,16,5,14.685,799.54460268516,54.13386,0.3131716,1.50914046824,0,0,-6.263432,234.4, 3.8, -2.2,0,0,1024,1024,1489,1024,234.6,-89.9,71,3.699,3.676,3.689,3.661,0,0,22.592,89.51,799.54460268516,54.13386,6,P-GPS,
41300,2019-10-04 17:50:10,38.4247589206165,-92.1275663850246,55.118112,,,800.52885468516,0,1.47685044096,16,5,14.685,800.52885468516,55.118112,0.3131716,1.50914046824,0,0,-6.487126,234.5, 3.5, -1.9,0,0,1024,1024,1489,1024,234.6,-89.9,71,3.699,3.676,3.689,3.661,0,0,22.592,89.51,800.52885468516,55.118112,6,P-GPS,
41400,2019-10-04 17:50:10,38.4247588953927,-92.127566395697,56.430448,,,801.84119068516,0,1.47282813112,16,5,14.685,801.84119068516,56.430448,0.3131716,1.50914046824,0,0,-6.487126,234.6, 3.2, -1.6,0,0,1024,1024,1479,1024,234.6,-89.9,71,3.699,3.676,3.689,3.661,0,0,22.592,89.51,801.84119068516,56.430448,6,P-GPS,
41500,2019-10-04 17:50:10,38.4247588243502,-92.1275663462575,57.4147,,,802.82544268516,0,1.44490162104,16,5,14.685,802.82544268516,57.4147,0.3131716,1.50914046824,0,0,-6.71082,234.6, 3.3, -1.9,0,0,1024,1024,1482,1024,234.6,-89.9,71,3.699,3.676,3.689,3.661,0,0,22.592,89.51,802.82544268516,57.4147,6,P-GPS,
41600,2019-10-04 17:50:10,38.4247587627771,-92.1275663249371,58.398952,,,803.80969468516,0,1.42533141044,16,5,14.651,803.80969468516,58.398952,0.3131716,1.50914046824,0,0,-6.71082,234.5, 3.4, -2.3,0,0,1024,1024,1489,1024,234.6,-89.9,71,3.714,3.688,3.696,3.665,0,0,20.268,89.51,803.80969468516,58.398952,6,P-GPS,
41700,2019-10-04 17:50:10,38.4247587253608,-92.1275663510306,59.05512,,,804.46586268516,0,1.42187668592,16,5,14.651,804.46586268516,59.05512,0.3131716,1.50914046824,0,0,-6.487126,234.5, 3.6, -2.2,0,0,1024,1024,1495,1024,234.6,-89.9,71,3.714,3.688,3.696,3.665,0,0,20.268,89.51,804.46586268516,59.05512,6,P-GPS,
41800,2019-10-04 17:50:10,38.4247586818487,-92.1275663746008,60.367456,,,805.77819868516,0,1.41658797184,16,5,14.651,805.77819868516,60.367456,0.3131716,1.50914046824,0,0,-6.71082,234.5, 3.8, -1.8,0,0,1024,1024,1498,1024,234.6,-89.9,71,3.714,3.688,3.696,3.665,0,0,20.268,89.51,805.77819868516,60.367456,6,P-GPS,
41900,2019-10-04 17:50:11,38.4247586210756,-92.1275664444012,61.351708,,,806.76245068516,0,1.41766408736,16,5,14.651,806.76245068516,61.351708,0.3131716,1.50914046824,0,0,-6.71082,234.5, 3.8, -1.9,0,0,1024,1024,1498,1024,234.6,-89.9,71,3.714,3.688,3.696,3.665,0,0,20.268,89.51,806.76245068516,61.351708,6,P-GPS,
42000,2019-10-04 17:50:11,38.4247585574039,-92.1275664525559,62.33596,,,807.74670268516,0,1.40488521556,16,5,14.651,807.74670268516,62.33596,0.3131716,1.50914046824,0,0,-6.71082,234.5, 3.7, -2,0,0,1024,1024,1500,1024,234.6,-89.9,71,3.714,3.688,3.696,3.665,0,0,20.268,89.51,807.74670268516,62.33596,6,P-GPS,
42100,2019-10-04 17:50:11,38.4247584912524,-92.1275664118698,63.320212,,,808.73095468516,0,1.38080384996,16,5,14.651,808.73095468516,63.320212,0.3131716,1.50914046824,0,0,-6.71082,234.5, 3.8, -1.7,0,0,1024,1024,1499,1024,234.6,-89.9,71,3.714,3.688,3.696,3.665,0,0,20.268,89.51,808.73095468516,63.320212,6,P-GPS,
42200,2019-10-04 17:50:11,38.4247584280846,-92.1275663869136,64.304464,,,809.71520668516,0,1.361056474,16,5,14.651,809.71520668516,64.304464,0.3131716,1.50914046824,0,0,-6.934514,234.5, 3.8, -1.7,0,0,1024,1024,1498,1024,234.6,-89.9,71,3.714,3.688,3.696,3.665,0,0,20.268,89.51,809.71520668516,64.304464,6,P-GPS,
42300,2019-10-04 17:50:11,38.4247583391797,-92.1275664309294,65.288716,,,810.69945868516,0,1.35172904588,16,5,14.651,810.69945868516,65.288716,0.3131716,1.50914046824,0,0,-6.934514,234.5, 3.8, -2.1,0,0,1024,1024,1499,1024,234.6,-89.9,71,3.714,3.688,3.696,3.665,0,0,20.268,89.51,810.69945868516,65.288716,6,P-GPS,
42400,2019-10-04 17:50:11,38.4247581829326,-92.1275664684307,66.272968,,,811.68371068516,0,1.32789046244,16,5,14.651,811.68371068516,66.272968,0.3131716,1.50914046824,0,0,-6.934514,234.5, 3.9, -2.2,0,0,1024,1024,1477,899,234.6,-89.9,71,3.714,3.688,3.696,3.665,0,0,20.268,89.51,811.68371068516,66.272968,6,P-GPS,
42500,2019-10-04 17:50:11,38.424758150014,-92.1275664994257,67.25722,,,812.66796268516,0,1.328658179,16,5,14.651,812.66796268516,67.25722,0.3131716,1.50914046824,0,0,-6.934514,234.5, 3.9, -2.1,0,0,1024,1025,1480,779,234.2,-89.9,71,3.714,3.688,3.696,3.665,0,0,20.268,89.51,812.66796268516,67.25722,6,P-GPS,
42600,2019-10-04 17:50:11,38.4247581249877,-92.1275665343437,68.569556,,,813.98029868516,0,1.33208993764,16,5,14.748,813.98029868516,68.569556,0.3131716,1.50914046824,0,0,-6.934514,234, 3.5, -2.2,0,0,1024,1024,1484,763,232.8,-89.9,71,3.714,3.688,3.696,3.665,0,0,20.496,89.51,813.98029868516,68.569556,6,P-GPS,
42700,2019-10-04 17:50:11,38.4247581091653,-92.1275665732201,69.553808,,,814.96455068516,0,1.33839243128,16,5,14.748,814.96455068516,69.553808,0.3131716,1.50914046824,0,0,-6.71082,231.7, 3.6, -2.3,0,0,1024,1024,1498,767,231.1,-89.9,71,3.714,3.688,3.696,3.665,0,0,20.496,89.51,814.96455068516,69.553808,6,P-GPS,
42800,2019-10-04 17:50:11,38.4247581374009,-92.1275666189198,70.53806,,,815.94880268516,0,1.35493114572,16,5,14.748,815.94880268516,70.53806,0.3131716,1.50914046824,0,0,-6.71082,228, 3.9, -2.7,0,0,1024,1024,1505,711,228.9,-89.9,71,3.714,3.688,3.696,3.665,0,0,20.496,89.51,815.94880268516,70.53806,6,P-GPS,
42900,2019-10-04 17:50:12,38.424758057408,-92.1275666478892,71.850396,,,817.26113868516,0,1.34670936068,16,5,14.748,817.26113868516,71.850396,0.3131716,1.50914046824,0,0,-6.71082,223.8, 4.3, -3.3,0,0,1024,1024,1511,751,228.9,-89.9,71,3.714,3.688,3.696,3.665,0,0,20.496,89.51,817.26113868516,71.850396,6,P-GPS,
43000,2019-10-04 17:50:12,38.4247579862849,-92.1275666606584,72.834648,,,818.24539068516,0,1.33671592204,16,5,14.748,818.24539068516,72.834648,0.3131716,1.50914046824,0,0,-6.934514,218.8, 4.1, -3.6,0,0,1024,1024,1524,946,225.9,-89.9,71,3.714,3.688,3.696,3.665,0,0,20.496,89.51,818.24539068516,72.834648,6,P-GPS,
43100,2019-10-04 17:50:12,38.4247579307672,-92.1275666767055,73.8189,,,819.22964268516,0,1.33073823156,16,5,14.748,819.22964268516,73.8189,0.3131716,1.50914046824,0,0,-6.934514,215, 3.6, -3.3,0,0,1024,1024,1533,986,222.5,-89.9,71,3.714,3.688,3.696,3.665,0,0,20.496,89.51,819.22964268516,73.8189,6,P-GPS,
43200,2019-10-04 17:50:12,38.4247578073267,-92.1275666893216,74.803152,,,820.21389468516,0,1.31266080316,15,5,14.748,820.21389468516,74.803152,0.3131716,1.50914046824,0,0,-6.934514,213.5, 3.2, -3,0,0,1024,1024,1538,987,219.7,-89.9,71,3.714,3.688,3.696,3.665,0,0,20.496,89.51,820.21389468516,74.803152,6,P-GPS,
43300,2019-10-04 17:50:12,38.4247577790312,-92.127566674431,76.115488,,,821.52623068516,0,1.30416998924,15,5,14.748,821.52623068516,76.115488,0.3131716,1.50914046824,0,0,-7.381902,212.8, 2.8, -3,0,0,1024,1024,1541,982,217.9,-89.9,71,3.714,3.688,3.696,3.665,0,0,20.496,89.51,821.52623068516,76.115488,6,P-GPS,
43400,2019-10-04 17:50:12,38.4247577598046,-92.1275666499094,77.09974,,,822.51048268516,0,1.29474741676,16,5,14.748,822.51048268516,77.09974,0.3131716,1.50914046824,0,0,-7.381902,212.5, 2.7, -3,0,0,1024,1024,1549,977,216.7,-89.9,71,3.714,3.688,3.696,3.665,0,0,20.496,89.51,822.51048268516,77.09974,6,P-GPS,
43500,2019-10-04 17:50:12,38.4247577452272,-92.1275665816263,78.083992,,,823.49473468516,0,1.274934424,16,5,14.748,823.49473468516,78.083992,0.3131716,1.50914046824,0,0,-7.605596,212.2, 2.4, -3.2,0,0,1024,1024,1552,966,215.9,-89.9,71,3.714,3.688,3.696,3.665,0,0,20.496,89.51,823.49473468516,78.083992,6,P-GPS,
43600,2019-10-04 17:50:12,38.4247577198414,-92.1275664470557,79.396328,,,824.80707068516,0,1.23648954088,16,5,14.615,824.80707068516,79.396328,0.3131716,1.50914046824,0,0,-7.82929,211.9, 2, -3.2,0,0,1024,1024,1553,965,215.2,-89.9,71,3.714,3.688,3.696,3.666,0,0,20.496,89.51,824.80707068516,79.396328,6,P-GPS,
43700,2019-10-04 17:50:12,38.4247576984131,-92.1275664054373,80.708664,,,826.11940668516,0,1.22232943544,16,5,14.615,826.11940668516,80.708664,0.3131716,1.50914046824,0,0,-8.052984,211.5, 1.7, -2.8,0,0,1024,1024,1552,964,214.6,-89.9,71,3.714,3.688,3.696,3.666,0,0,20.496,89.51,826.11940668516,80.708664,6,P-GPS,
43800,2019-10-04 17:50:12,38.4247576701058,-92.1275663793603,81.692916,,,827.10365868516,0,1.21098100988,16,5,14.615,827.10365868516,81.692916,0.3131716,1.50914046824,0,0,-8.052984,211, 1.7, -2.5,0,0,1024,1024,1550,959,214,-89.9,71,3.714,3.688,3.696,3.666,0,0,20.496,89.51,827.10365868516,81.692916,6,P-GPS,
43900,2019-10-04 17:50:13,38.424757621748,-92.1275663268863,83.005252,,,828.41599468516,0,1.18962602232,16,5,14.615,828.41599468516,83.005252,0.3131716,1.50914046824,0,0,-8.276678,210.5, 2.1, -2.7,0,0,1024,1024,1552,949,213.5,-89.9,71,3.714,3.688,3.696,3.666,0,0,20.496,89.51,828.41599468516,83.005252,6,P-GPS,
44000,2019-10-04 17:50:13,38.4247575821617,-92.1275663049918,84.317588,,,829.72833068516,0,1.17759846288,16,5,14.615,829.72833068516,84.317588,0.3131716,1.50914046824,0,0,-8.276678,209.9, 2.4, -3,0,0,1024,1024,1556,945,212.8,-89.9,71,3.714,3.688,3.696,3.666,0,0,20.496,89.51,829.72833068516,84.317588,6,P-GPS,
44100,2019-10-04 17:50:13,38.4247575468929,-92.127566259601,85.30184,,,830.71258268516,0,1.16029531272,16,5,14.615,830.71258268516,85.30184,0.3131716,1.50914046824,0,0,-8.052984,209.2, 2.6, -3.4,0,0,1024,1024,1556,942,212.3,-89.9,71,3.714,3.688,3.696,3.666,0,0,20.496,89.51,830.71258268516,85.30184,6,P-GPS,
44200,2019-10-04 17:50:13,38.424757538574,-92.1275663206397,86.614176,,,832.02491868516,0,1.17471460452,16,5,14.615,832.02491868516,86.614176,0.3131716,1.50914046824,0,0,-8.052984,208.5, 3, -3.9,0,0,1024,1024,1556,938,211.6,-89.9,71,3.714,3.688,3.696,3.666,0,0,20.496,89.51,832.02491868516,86.614176,6,P-GPS,
44300,2019-10-04 17:50:13,38.4247575020879,-92.1275664360742,87.598428,,,833.00917068516,0,1.1991142116,16,5,14.615,833.00917068516,87.598428,0.3131716,1.50914046824,0,0,-8.052984,207.7, 3.1, -4.4,0,0,1024,1024,1559,940,211.6,-89.9,71,3.714,3.688,3.696,3.666,0,0,20.496,89.51,833.00917068516,87.598428,6,P-GPS,
44400,2019-10-04 17:50:13,38.4247574711804,-92.1275665357023,89.238848,,,834.64959068516,0,1.22069557712,16,5,14.615,834.64959068516,89.238848,0.3131716,1.50914046824,0,0,-8.276678,206.8, 3.1, -4.7,0,0,1024,1024,1562,945,210.9,-89.9,71,3.714,3.688,3.696,3.666,0,0,20.496,89.51,834.64959068516,89.238848,6,P-GPS,
44500,2019-10-04 17:50:13,38.4247573753094,-92.1275666871456,90.2231,,,835.63384268516,0,1.2477690688,16,5,14.615,835.63384268516,90.2231,0.3131716,1.50914046824,0,0,-8.276678,205.8, 3.3, -4.4,0,0,1024,1024,1551,947,210.2,-89.9,71,3.714,3.688,3.696,3.666,0,0,20.496,89.51,835.63384268516,90.2231,6,P-GPS,
44600,2019-10-04 17:50:13,38.4247573585735,-92.1275667285507,91.535436,,,836.94617868516,0,1.25669951528,16,5,14.624,836.94617868516,91.535436,0.3131716,1.50914046824,0,0,-8.276678,204.9, 3.3, -4,0,0,1024,1024,1541,951,209.5,-89.9,71,3.709,3.685,3.69,3.651,0,0,20.378,89.51,836.94617868516,91.535436,6,P-GPS,
44700,2019-10-04 17:50:13,38.4247573582767,-92.1275667953193,92.847772,,,838.25851468516,0,1.27457025076,16,5,14.624,838.25851468516,92.847772,0.3131716,1.50914046824,0,0,-8.276678,204.1, 2.7, -4,0,0,1024,1024,1513,980,208.8,-89.9,71,3.709,3.685,3.69,3.651,0,0,20.378,89.51,838.25851468516,92.847772,6,P-GPS,
44800,2019-10-04 17:50:13,38.4247573760752,-92.12756685679,94.160108,,,839.57085068516,0,1.29330384716,16,5,14.624,839.57085068516,94.160108,0.3131716,1.50914046824,0,0,-8.276678,203.4, 1.9, -4.3,0,0,1024,1024,1478,1023,208.1,-89.9,71,3.709,3.685,3.69,3.651,0,0,20.378,89.51,839.57085068516,94.160108,6,P-GPS,
44900,2019-10-04 17:50:14,38.4247574517572,-92.1275669857401,95.14436,,,840.55510268516,0,1.33746395356,16,5,14.624,840.55510268516,95.14436,0.3131716,1.50914046824,0,0,-8.052984,202.8, 1.2, -4.4,0,0,1024,1024,1476,1024,207.7,-89.9,71,3.709,3.685,3.69,3.651,0,0,20.378,89.51,840.55510268516,95.14436,6,P-GPS,
45000,2019-10-04 17:50:14,38.4247575023753,-92.1275670407892,96.128612,,,841.53935468516,0,1.35875004348,16,5,14.624,841.53935468516,96.128612,0.3131716,1.50914046824,0,0,-7.381902,202.7, 1, -4.6,0,0,1024,1024,1481,1022,207.3,-89.9,71,3.709,3.685,3.69,3.651,0,0,20.378,89.51,841.53935468516,96.128612,6,P-GPS,
45100,2019-10-04 17:50:14,38.4247575412756,-92.1275670751467,97.440948,,,842.85169068516,0,1.3730643484,16,5,14.624,842.85169068516,97.440948,0.3131716,1.50914046824,0,0,-7.158208,202.6, 1.4, -4.7,0,0,1024,1024,1482,1022,207,-89.9,71,3.709,3.685,3.69,3.651,0,0,20.378,89.51,842.85169068516,97.440948,6,P-GPS,
45200,2019-10-04 17:50:14,38.4247575737166,-92.1275671155704,98.4252,,,843.83594268516,0,1.3881726166,16,5,14.624,843.83594268516,98.4252,0.3131716,1.50914046824,0,0,-6.71082,202.6, 2, -3.9,0,0,1024,1024,1479,1024,206.7,-89.9,71,3.709,3.685,3.69,3.651,0,0,20.378,89.51,843.83594268516,98.4252,6,P-GPS,
45300,2019-10-04 17:50:14,38.4247576914462,-92.1275671878366,99.409452,,,844.82019468516,0,1.42368114792,16,5,14.624,844.82019468516,99.409452,0.3131716,1.50914046824,0,0,-6.71082,202.7, 2.4, -4.2,0,0,1024,1024,1471,1024,206.5,-89.9,71,3.709,3.685,3.69,3.651,0,0,20.378,89.51,844.82019468516,99.409452,6,P-GPS,
45400,2019-10-04 17:50:14,38.4247577429457,-92.1275672683422,100.393704,,,845.80444668516,0,1.45224414096,16,5,14.624,845.80444668516,100.393704,0.3131716,1.50914046824,0,0,-6.487126,202.7, 2.2, -4.6,0,0,1024,1024,1458,1024,206.3,-89.9,71,3.709,3.685,3.69,3.651,0,0,20.378,89.51,845.80444668516,100.393704,6,P-GPS,
45500,2019-10-04 17:50:14,38.4247577467591,-92.1275673659364,101.70604,,,847.11678268516,0,1.47842524416,16,5,14.624,847.11678268516,101.70604,0.3131716,1.50914046824,0,0,-6.487126,202.7, 1.9, -5,0,0,1024,1024,1456,1024,206.1,-89.9,71,3.709,3.685,3.69,3.651,0,0,20.378,89.51,847.11678268516,101.70604,6,P-GPS,
45600,2019-10-04 17:50:14,38.4247577536059,-92.1275674604087,102.690292,,,848.10103468516,0,1.50426842084,16,5,14.615,848.10103468516,102.690292,0.3131716,1.50914046824,0,0,-6.263432,202.8, 1.4, -5.7,0,0,1024,1024,1462,1024,205.9,-89.9,71,3.7,3.675,3.685,3.654,0,0,20.78,89.51,848.10103468516,102.690292,6,P-GPS,
45700,2019-10-04 17:50:14,38.424757788188,-92.1275675426421,103.34646,,,848.75720268516,0,1.53082682064,16,5,14.615,848.75720268516,103.34646,0.3131716,1.53082682064,0,0,-6.039738,202.7, 1.3, -6,0,0,1024,1024,1463,1024,205.8,-89.9,71,3.7,3.675,3.685,3.654,0,0,20.78,89.51,848.75720268516,103.34646,6,P-GPS,
45800,2019-10-04 17:50:15,38.4247577714423,-92.1275676329618,104.330712,,,849.74145468516,0,1.55232616516,16,5,14.615,849.74145468516,104.330712,0.3131716,1.55232616516,0,0,-6.039738,202.7, 1.7, -6,0,0,1024,1024,1464,1024,205.8,-89.9,71,3.7,3.675,3.685,3.654,0,0,20.78,89.51,849.74145468516,104.330712,6,P-GPS,
45900,2019-10-04 17:50:15,38.4247577385538,-92.1275677022045,105.314964,,,850.72570668516,0,1.5662073992,16,5,14.615,850.72570668516,105.314964,0.3131716,1.5662073992,0,0,-6.039738,202.8, 1.4, -6.1,0,0,1024,1024,1465,1024,205.7,-89.9,71,3.7,3.675,3.685,3.654,0,0,20.78,89.51,850.72570668516,105.314964,6,P-GPS,
46000,2019-10-04 17:50:15,38.4247576877875,-92.1275677501623,105.971132,,,851.38187468516,0,1.57229663824,16,5,14.615,851.38187468516,105.971132,0.3131716,1.57229663824,0,0,-6.039738,202.8, 1.7, -5.7,0,0,1024,1024,1460,1024,205.5,-89.9,71,3.7,3.675,3.685,3.654,0,0,20.78,89.51,851.38187468516,105.971132,6,P-GPS,
46100,2019-10-04 17:50:15,38.42475764156,-92.1275677781147,106.955384,,,852.36612668516,0,1.57389440732,16,5,14.615,852.36612668516,106.955384,0.3131716,1.57389440732,0,0,-6.039738,202.8, 1.9, -5.6,0,0,1024,1024,1458,1024,205.4,-89.9,71,3.7,3.675,3.685,3.654,0,0,20.78,89.51,852.36612668516,106.955384,6,P-GPS,
46200,2019-10-04 17:50:15,38.4247575762598,-92.1275678271961,107.939636,,,853.35037868516,0,1.5791175046,16,5,14.615,853.35037868516,107.939636,0.3131716,1.5791175046,0,0,-6.039738,202.7, 2.3, -5.4,0,0,1024,1024,1454,1024,205.3,-89.9,71,3.7,3.675,3.685,3.654,0,0,20.78,89.51,853.35037868516,107.939636,6,P-GPS,
46300,2019-10-04 17:50:15,38.424757535692,-92.1275677615893,108.923888,,,854.33463068516,0,1.55657485296,16,5,14.615,854.33463068516,108.923888,0.3131716,1.5791175046,0,0,-6.039738,202.7, 2.2, -4.9,0,0,1024,1024,1453,1024,205.2,-89.9,71,3.7,3.675,3.685,3.654,0,0,20.78,89.51,854.33463068516,108.923888,6,P-GPS,
46400,2019-10-04 17:50:15,38.4247574905096,-92.1275676815183,109.90814,,,855.31888268516,0,1.52961290984,16,5,14.615,855.31888268516,109.90814,0.3131716,1.5791175046,0,0,-6.039738,202.8, 2, -3.9,0,0,1024,1024,1450,1024,205.1,-89.9,71,3.7,3.675,3.685,3.654,0,0,20.78,89.51,855.31888268516,109.90814,6,P-GPS,
46500,2019-10-04 17:50:15,38.4247573916777,-92.1275675746049,110.892392,,,856.30313468516,0,1.48938981144,16,5,14.615,856.30313468516,110.892392,0.3131716,1.5791175046,0,0,-6.039738,202.8, 1.8, -3.7,0,0,1024,1024,1447,1024,205.1,-89.9,71,3.7,3.675,3.685,3.654,0,0,20.78,89.51,856.30313468516,110.892392,6,P-GPS,
46600,2019-10-04 17:50:15,38.4247572855732,-92.1275673469179,111.54856,,,856.95930268516,0,1.415764481,16,5,14.734,856.95930268516,111.54856,0.3131716,1.5791175046,0,0,-6.039738,202.8, 1.6, -4.3,0,0,1024,1024,1447,1024,205,-89.9,71,3.7,3.675,3.685,3.654,0,0,17.048,89.51,856.95930268516,111.54856,6,P-GPS,
46700,2019-10-04 17:50:15,38.4247572047132,-92.1275672896872,112.532812,,,857.94355468516,0,1.39174545136,16,5,14.734,857.94355468516,112.532812,0.3131716,1.5791175046,0,0,-5.816044,202.7, 1.6, -4.7,0,0,1024,1024,1447,1024,204.9,-89.9,71,3.7,3.675,3.685,3.654,0,0,17.048,89.51,857.94355468516,112.532812,6,P-GPS,
46800,2019-10-04 17:50:15,38.4247571152209,-92.1275672236703,113.517064,,,858.92780668516,0,1.36490161848,16,5,14.734,858.92780668516,113.517064,0.3131716,1.5791175046,0,0,-6.039738,202.6, 1.8, -4.4,0,0,1024,1024,1446,1024,204.9,-89.9,71,3.7,3.675,3.685,3.654,0,0,17.048,89.51,858.92780668516,113.517064,6,P-GPS,
46900,2019-10-04 17:50:16,38.4247569947718,-92.127567139332,114.173232,,,859.58397468516,0,1.33086290348,16,5,14.734,859.58397468516,114.173232,0.3131716,1.5791175046,0,0,-5.816044,202.5, 2.2, -3.8,0,0,1024,1024,1446,1024,204.8,-89.9,71,3.7,3.675,3.685,3.654,0,0,17.048,89.51,859.58397468516,114.173232,6,P-GPS,
47000,2019-10-04 17:50:16,38.4247568221734,-92.1275670706443,115.157484,,,860.56822668516,0,1.2985728762,16,5,14.734,860.56822668516,115.157484,0.3131716,1.5791175046,0,0,-5.816044,202.4, 2.5, -3.4,0,0,1024,1024,1444,1024,204.7,-89.9,71,3.7,3.675,3.685,3.654,0,0,17.048,89.51,860.56822668516,115.157484,6,P-GPS,
47100,2019-10-04 17:50:16,38.4247567077915,-92.1275669727876,116.141736,,,861.55247868516,0.223694,1.2638287806,16,5,14.734,861.55247868516,116.141736,0.3131716,1.5791175046,0,0.223694,-5.816044,202.6, 2.3, -3.2,0,0,1024,1024,1440,1024,204.6,-89.9,71,3.7,3.675,3.685,3.654,0,0,17.048,89.51,861.55247868516,116.141736,6,P-GPS,
47200,2019-10-04 17:50:16,38.424756605789,-92.1275668743597,116.797904,,,862.20864668516,0.223694,1.23058074804,16,5,14.734,862.20864668516,116.797904,0.3131716,1.5791175046,0,0.223694,-5.816044,202.8, 1.5, -2.9,0,0,1024,1024,1439,1024,204.6,-89.9,71,3.7,3.675,3.685,3.654,0,0,17.048,89.51,862.20864668516,116.797904,6,P-GPS,
47300,2019-10-04 17:50:16,38.4247564949254,-92.1275667711695,117.782156,,,863.19289868516,0.223694,1.1965387522,16,5,14.734,863.19289868516,117.782156,0.3131716,1.5791175046,0,0.223694,-5.816044,202.8, 1.3, -2.1,0,0,1024,1024,1436,1024,204.6,-89.9,71,3.7,3.675,3.685,3.654,0,0,17.048,89.51,863.19289868516,117.782156,6,P-GPS,
47400,2019-10-04 17:50:16,38.4247563811664,-92.1275666858662,118.438324,,,863.84906668516,0.223694,1.16868113976,16,5,14.734,863.84906668516,118.438324,0.3131716,1.5791175046,-0.223694,0,-5.816044,202.9, 1.6, -1.9,0,0,1024,1024,1435,1024,204.5,-89.9,71,3.7,3.675,3.685,3.654,0,0,17.048,89.51,863.84906668516,118.438324,6,P-GPS,
47500,2019-10-04 17:50:16,38.4247562225022,-92.1275665960084,119.422576,,,864.83331868516,0.223694,1.14042326484,16,5,14.734,864.83331868516,119.422576,0.3131716,1.5791175046,-0.223694,0,-5.59235,202.8, 2.2, -1.9,0,0,1024,1024,1435,1024,204.5,-89.9,71,3.7,3.675,3.685,3.654,0,0,17.048,89.51,864.83331868516,119.422576,6,P-GPS,
47600,2019-10-04 17:50:16,38.4247560993478,-92.1275665379085,120.078744,,,865.48948668516,0.223694,1.12379924856,16,5,14.675,865.48948668516,120.078744,0.3131716,1.5791175046,-0.223694,0,-5.59235,202.7, 2.8, -1.9,0,0,1024,1024,1436,1024,204.4,-89.9,71,3.721,3.698,3.707,3.676,0,0,17.048,89.51,865.48948668516,120.078744,6,P-GPS,
47700,2019-10-04 17:50:16,38.4247559714458,-92.1275665151201,120.734912,,,866.14565468516,0.223694,1.11917326416,16,5,14.675,866.14565468516,120.734912,0.3131716,1.5791175046,-0.223694,0,-5.59235,202.6, 3.7, -2.3,0,0,1024,1024,1434,1024,204.4,-89.9,71,3.721,3.698,3.707,3.676,0,0,17.048,89.51,866.14565468516,120.734912,6,P-GPS,
47800,2019-10-04 17:50:16,38.4247558625306,-92.1275664986111,121.719164,,,867.12990668516,0.223694,1.11761158432,16,5,14.675,867.12990668516,121.719164,0.3131716,1.5791175046,-0.223694,0,-5.368656,202.5, 3.9, -2.7,0,0,1024,1024,1432,1024,204.3,-89.9,71,3.721,3.698,3.707,3.676,0,0,17.048,89.51,867.12990668516,121.719164,6,P-GPS,
47900,2019-10-04 17:50:17,38.4247557704396,-92.1275665048467,122.375332,,,867.78607468516,0,1.12313323804,16,5,14.675,867.78607468516,122.375332,0.3131716,1.5791175046,0,0,-5.59235,202.4, 3.6, -2.8,0,0,1024,1024,1433,1024,204.3,-89.9,71,3.721,3.698,3.707,3.676,0,0,17.048,89.51,867.78607468516,122.375332,6,P-GPS,
48000,2019-10-04 17:50:17,38.4247556833325,-92.1275664707489,123.359584,,,868.77032668516,0,1.1179626342,16,5,14.675,868.77032668516,123.359584,0.3131716,1.5791175046,0,0,-5.59235,202.4, 3.5, -2.5,0,0,1024,1024,1430,1024,204.3,-89.9,71,3.721,3.698,3.707,3.676,0,0,17.048,89.51,868.77032668516,123.359584,6,P-GPS,
48100,2019-10-04 17:50:17,38.4247555352272,-92.1275664356122,124.343836,,,869.75457868516,0,1.11778546884,16,5,14.675,869.75457868516,124.343836,0.3131716,1.5791175046,0,0,-5.59235,202.5, 3.5, -1.9,0,0,1024,1024,1430,1024,204.2,-89.9,71,3.721,3.698,3.707,3.676,0,0,17.048,89.51,869.75457868516,124.343836,6,P-GPS,
48200,2019-10-04 17:50:17,38.4247554078047,-92.1275664075833,125.000004,,,870.41074668516,0,1.12040686,16,5,14.675,870.41074668516,125.000004,0.3131716,1.5791175046,0,0,-5.59235,202.6, 3.1, -1.6,0,0,1024,1024,1434,1024,204.2,-89.9,71,3.721,3.698,3.707,3.676,0,0,17.048,89.51,870.41074668516,125.000004,6,P-GPS,
48300,2019-10-04 17:50:17,38.4247551498909,-92.1275664574848,125.984256,,,871.39499868516,0,1.16058730748,16,5,14.675,871.39499868516,125.984256,0.3131716,1.5791175046,0,0,-5.59235,202.7, 2.8, -0.9,0,0,1024,1024,1429,1024,204.1,-89.9,71,3.721,3.698,3.707,3.676,0,0,17.048,89.51,871.39499868516,125.984256,6,P-GPS,
48400,2019-10-04 17:50:17,38.4247550794355,-92.1275664846608,126.640424,,,872.05116668516,0,1.17631565444,16,5,14.675,872.05116668516,126.640424,0.3131716,1.5791175046,0,0,-5.59235,202.8, 2.6, -1.2,0,0,1024,1024,1429,1024,204.1,-89.9,71,3.721,3.698,3.707,3.676,0,0,17.048,89.51,872.05116668516,126.640424,6,P-GPS,
48500,2019-10-04 17:50:17,38.424755062862,-92.1275665157051,127.296592,,,872.70733468516,0,1.18670607472,16,5,14.675,872.70733468516,127.296592,0.3131716,1.5791175046,0,0,-5.59235,202.8, 2.5, -1.9,0,0,1024,1024,1434,1024,204.1,-89.9,71,3.721,3.698,3.707,3.676,0,0,17.048,89.51,872.70733468516,127.296592,6,P-GPS,
48600,2019-10-04 17:50:17,38.4247550597525,-92.1275665783868,127.95276,,,873.36350268516,0,1.20396657396,16,5,14.708,873.36350268516,127.95276,0.3131716,1.5791175046,0,0,-5.368656,202.9, 2.8, -2.6,0,0,1024,1024,1433,1024,204.1,-89.9,71,3.715,3.692,3.702,3.674,0,0,18.77,89.51,873.36350268516,127.95276,6,P-GPS,
48700,2019-10-04 17:50:17,38.4247552095978,-92.1275666293627,128.937012,,,874.34775468516,0,1.20081040588,16,5,14.708,874.34775468516,128.937012,0.3131716,1.5791175046,0,0,-5.59235,203, 2.8, -3.2,0,0,1024,1024,1424,1024,204,-89.9,71,3.715,3.692,3.702,3.674,0,0,18.77,89.51,874.34775468516,128.937012,6,P-GPS,
48800,2019-10-04 17:50:17,38.4247552349877,-92.1275667334331,129.59318,,,875.00392268516,0,1.22674216524,16,5,14.708,875.00392268516,129.59318,0.3131716,1.5791175046,0,0,-5.59235,203, 3, -3.8,0,0,1024,1024,1424,1024,204,-89.9,71,3.715,3.692,3.702,3.674,0,0,18.77,89.51,875.00392268516,129.59318,6,P-GPS,
48900,2019-10-04 17:50:18,38.4247552324261,-92.1275668263909,130.577432,,,875.98817468516,0,1.25256237604,16,5,14.708,875.98817468516,130.577432,0.3131716,1.5791175046,0,0,-5.59235,203, 3.2, -4.4,0,0,1024,1024,1425,1024,204,-89.9,71,3.715,3.692,3.702,3.674,0,0,18.77,89.51,875.98817468516,130.577432,6,P-GPS,
49000,2019-10-04 17:50:18,38.4247552224869,-92.1275669077139,131.561684,,,876.97242668516,0,1.27592523768,16,5,14.708,876.97242668516,131.561684,0.3131716,1.5791175046,0,0,-5.59235,203.1, 3.4, -4.1,0,0,1024,1024,1423,1024,204,-89.9,71,3.715,3.692,3.702,3.674,0,0,18.77,89.51,876.97242668516,131.561684,6,P-GPS,
49100,2019-10-04 17:50:18,38.4247552115536,-92.1275670035941,132.217852,,,877.62859468516,0,1.30340227268,16,5,14.708,877.62859468516,132.217852,0.3131716,1.5791175046,0,0,-5.59235,203, 3.7, -3.8,0,0,1024,1024,1424,1024,204,-89.9,71,3.715,3.692,3.702,3.674,0,0,18.77,89.51,877.62859468516,132.217852,6,P-GPS,
49200,2019-10-04 17:50:18,38.4247552189882,-92.1275670349144,133.202104,,,878.61284668516,0,1.31132550128,16,5,14.708,878.61284668516,133.202104,0.3131716,1.5791175046,0,0,-5.368656,203, 4.3, -3.8,0,0,1024,1024,1423,1024,204,-89.9,71,3.715,3.692,3.702,3.674,0,0,18.77,89.51,878.61284668516,133.202104,6,P-GPS,
49300,2019-10-04 17:50:18,38.4247551432452,-92.1275671539001,133.858272,,,879.26901468516,0,1.35149610624,16,5,14.708,879.26901468516,133.858272,0.3131716,1.5791175046,0,0,-5.368656,202.9, 4.1, -4,0,0,1024,1024,1422,1024,204,-89.9,71,3.715,3.692,3.702,3.674,0,0,18.77,89.51,879.26901468516,133.858272,6,P-GPS,
49400,2019-10-04 17:50:18,38.4247550678637,-92.1275672370028,134.842524,,,880.25326668516,0,1.38202760328,16,5,14.708,880.25326668516,134.842524,0.3131716,1.5791175046,0,0,-5.368656,202.8, 4.3, -3.5,0,0,1024,1024,1421,1024,204,-89.9,71,3.715,3.692,3.702,3.674,0,0,18.77,89.51,880.25326668516,134.842524,6,P-GPS,
49500,2019-10-04 17:50:18,38.4247549896927,-92.127567256117,135.498692,,,880.90943468516,0,1.39571526776,16,5,14.708,880.90943468516,135.498692,0.3131716,1.5791175046,0,0,-5.368656,202.8, 4.3, -2.9,0,0,1024,1024,1421,1024,204,-89.9,71,3.715,3.692,3.702,3.674,0,0,18.77,89.51,880.90943468516,135.498692,6,P-GPS,
49600,2019-10-04 17:50:18,38.4247548070481,-92.1275672991514,136.482944,,,881.89368668516,0,1.42904860216,16,5,14.65,881.89368668516,136.482944,0.3131716,1.5791175046,0,0,-5.368656,202.8, 3.9, -2.4,0,0,1024,1024,1420,1024,203.9,-89.9,71,3.717,3.693,3.701,3.675,0,0,18.814,89.51,881.89368668516,136.482944,6,P-GPS,
49700,2019-10-04 17:50:18,38.4247548246833,-92.1275672332958,137.139112,,,882.54985468516,0,1.40916015008,16,5,14.65,882.54985468516,137.139112,0.3131716,1.5791175046,0,0,-5.368656,202.8, 3.4, -2.4,0,0,1024,1024,1418,1024,203.9,-89.9,71,3.717,3.693,3.701,3.675,0,0,18.814,89.51,882.54985468516,137.139112,6,P-GPS,
49800,2019-10-04 17:50:18,38.4247548413968,-92.127567172894,138.123364,,,883.53410668516,0,1.39085306288,16,5,14.65,883.53410668516,138.123364,0.3131716,1.5791175046,0,0,-5.368656,202.8, 3.3, -2.3,0,0,1024,1024,1417,1024,203.9,-89.9,71,3.717,3.693,3.701,3.675,0,0,18.814,89.51,883.53410668516,138.123364,6,P-GPS,
49900,2019-10-04 17:50:19,38.4247548316799,-92.1275671396245,138.779532,,,884.19027468516,0,1.38317261644,16,5,14.65,884.19027468516,138.779532,0.3131716,1.5791175046,0,0,-5.368656,202.8, 3.3, -2.3,0,0,1024,1024,1415,1024,203.9,-89.9,71,3.717,3.693,3.701,3.675,0,0,18.814,89.51,884.19027468516,138.779532,6,P-GPS,
50000,2019-10-04 17:50:19,38.4247548884809,-92.1275670252726,139.4357,,,884.84644268516,0,1.34532156536,16,5,14.65,884.84644268516,139.4357,0.3131716,1.5791175046,0,0,-5.368656,202.6, 3.3, -2.3,0,0,1024,1024,1412,1024,203.9,-89.9,71,3.717,3.693,3.701,3.675,0,0,18.814,89.51,884.84644268516,139.4357,6,P-GPS,
50100,2019-10-04 17:50:19,38.4247548881625,-92.1275670105541,140.091868,,,885.50261068516,0,1.34141408492,16,5,14.65,885.50261068516,140.091868,0.3131716,1.5791175046,0,0,-5.144962,202.5, 3.4, -2.4,0,0,1024,1024,1410,1024,203.9,-89.9,71,3.717,3.693,3.701,3.675,0,0,18.814,89.51,885.50261068516,140.091868,6,P-GPS,
50200,2019-10-04 17:50:19,38.4247548782493,-92.1275669936734,141.07612,,,886.48686268516,0,1.33814636828,16,5,14.65,886.48686268516,141.07612,0.3131716,1.5791175046,0,0,-5.144962,202.6, 3.7, -2.1,0,0,1024,1024,1411,1024,203.9,-89.9,71,3.717,3.693,3.701,3.675,0,0,18.814,89.51,886.48686268516,141.07612,6,P-GPS,
50300,2019-10-04 17:50:19,38.4247548103546,-92.1275669476537,141.732288,,,887.14303068516,0,1.33476382224,16,5,14.65,887.14303068516,141.732288,0.3131716,1.5791175046,0,0,-5.144962,202.7, 4.1, -2.1,0,0,1024,1024,1409,1024,203.9,-89.9,71,3.717,3.693,3.701,3.675,0,0,18.814,89.51,887.14303068516,141.732288,6,P-GPS,
50400,2019-10-04 17:50:19,38.4247547331924,-92.1275668489879,142.71654,,,888.12728268516,0,1.31943573776,16,5,14.65,888.12728268516,142.71654,0.3131716,1.5791175046,0,0,-5.144962,202.7, 4.5, -1.9,0,0,1024,1024,1408,1024,203.8,-89.9,71,3.717,3.693,3.701,3.675,0,0,18.814,89.51,888.12728268516,142.71654,6,P-GPS,
50500,2019-10-04 17:50:19,38.4247547577111,-92.1275668345675,143.372708,,,888.78345068516,0,1.31213586876,16,5,14.65,888.78345068516,143.372708,0.3131716,1.5791175046,0,0,-5.144962,202.8, 4.8, -1.5,0,0,1024,1024,1410,1024,203.8,-89.9,71,3.717,3.693,3.701,3.675,0,0,18.814,89.51,888.78345068516,143.372708,6,P-GPS,
50600,2019-10-04 17:50:19,38.4247547895211,-92.1275668262187,144.028876,,,889.43961868516,0,1.30545279768,16,5,14.68,889.43961868516,144.028876,0.3131716,1.5791175046,0,0,-5.144962,202.8, 4.4, -1.4,0,0,1024,1024,1410,1024,203.8,-89.9,71,3.717,3.693,3.701,3.675,0,0,18.814,89.51,889.43961868516,144.028876,6,P-GPS,
50700,2019-10-04 17:50:19,38.4247547859752,-92.127566840404,145.013128,,,890.42387068516,0,1.3096949238,16,5,14.68,890.42387068516,145.013128,0.3131716,1.5791175046,0,0,-5.144962,202.8, 3.9, -1.6,0,0,1024,1024,1410,1024,203.8,-89.9,71,3.717,3.693,3.701,3.675,0,0,18.814,89.51,890.42387068516,145.013128,6,P-GPS,
50800,2019-10-04 17:50:19,38.424754789123,-92.1275668616806,145.669296,,,891.08003868516,0,1.314878651,16,5,14.68,891.08003868516,145.669296,0.3131716,1.5791175046,0,0,-5.144962,202.8, 3.7, -2,0,0,1024,1024,1409,1024,203.8,-89.9,71,3.717,3.693,3.701,3.675,0,0,18.814,89.51,891.08003868516,145.669296,6,P-GPS,
50900,2019-10-04 17:50:20,38.4247547740696,-92.1275668874105,146.325464,,,891.73620668516,0,1.3237697274,16,5,14.68,891.73620668516,146.325464,0.3131716,1.5791175046,0,0,-5.144962,202.8, 3.8, -2.4,0,0,1024,1024,1410,1024,203.8,-89.9,71,3.717,3.693,3.701,3.675,0,0,18.814,89.51,891.73620668516,146.325464,6,P-GPS,
51000,2019-10-04 17:50:20,38.4247547715879,-92.1275668761803,147.309716,,,892.72045868516,0,1.32115161708,16,5,14.68,892.72045868516,147.309716,0.3131716,1.5791175046,0,0,-5.144962,202.7, 3.9, -2.8,0,0,1024,1024,1409,1024,203.8,-89.9,71,3.717,3.693,3.701,3.675,0,0,18.814,89.51,892.72045868516,147.309716,6,P-GPS,
51100,2019-10-04 17:50:20,38.4247548122583,-92.1275668852864,147.965884,,,893.37662668516,0,1.31794951724,16,5,14.68,893.37662668516,147.965884,0.3131716,1.5791175046,0,0,-5.144962,202.6, 4.1, -2.5,0,0,1024,1024,1409,1024,203.7,-89.9,71,3.717,3.693,3.701,3.675,0,0,18.814,89.51,893.37662668516,147.965884,6,P-GPS,
51200,2019-10-04 17:50:20,38.4247548672858,-92.1275668833072,148.622052,,,894.03279468516,0,1.31006565872,16,5,14.68,894.03279468516,148.622052,0.3131716,1.5791175046,0,0,-5.144962,202.6, 4.1, -1.9,0,0,1024,1024,1411,1024,203.7,-89.9,71,3.717,3.693,3.701,3.675,0,0,18.814,89.51,894.03279468516,148.622052,6,P-GPS,
51300,2019-10-04 17:50:20,38.4247549711081,-92.1275669151223,149.606304,,,895.01704668516,0,1.30549216776,16,5,14.68,895.01704668516,149.606304,0.3131716,1.5791175046,0,0,-5.144962,202.7, 3.5, -1.8,0,0,1024,1024,1412,1024,203.7,-89.9,71,3.717,3.693,3.701,3.675,0,0,18.814,89.51,895.01704668516,149.606304,6,P-GPS,
51400,2019-10-04 17:50:20,38.4247550572813,-92.1275669157237,150.262472,,,895.67321468516,0.223694,1.2955545034,16,5,14.68,895.67321468516,150.262472,0.3131716,1.5791175046,0.223694,0,-5.144962,202.8, 2.8, -2.1,0,0,1024,1024,1411,1024,203.7,-89.9,71,3.717,3.693,3.701,3.675,0,0,18.814,89.51,895.67321468516,150.262472,6,P-GPS,
51500,2019-10-04 17:50:20,38.4247551411665,-92.1275669092858,150.91864,,,896.32938268516,0.223694,1.28462274452,16,5,14.68,896.32938268516,150.91864,0.3131716,1.5791175046,0.223694,0,-5.144962,202.8, 2.2, -2.8,0,0,1024,1024,1411,1024,203.7,-89.9,71,3.717,3.693,3.701,3.675,0,0,18.814,89.51,896.32938268516,150.91864,6,P-GPS,
51600,2019-10-04 17:50:20,38.4247552137845,-92.1275669047041,151.902892,,,897.31363468516,0.223694,1.2759514844,16,5,14.739,897.31363468516,151.902892,0.3131716,1.5791175046,0.223694,0,-5.144962,202.8, 2, -2.7,0,0,1024,1024,1410,1024,203.7,-89.9,71,3.726,3.703,3.711,3.684,0,0,17.888,89.51,897.31363468516,151.902892,6,P-GPS,
51700,2019-10-04 17:50:20,38.4247551912974,-92.127566886522,152.55906,,,897.96980268516,0,1.27320214048,16,5,14.739,897.96980268516,152.55906,0.3131716,1.5791175046,0,0,-5.144962,202.8, 2, -2.8,0,0,1024,1024,1411,1024,203.7,-89.9,71,3.726,3.703,3.711,3.684,0,0,17.888,89.51,897.96980268516,152.55906,6,P-GPS,
51800,2019-10-04 17:50:20,38.4247552284405,-92.1275668867243,153.215228,,,898.62597068516,0,1.26956368892,16,5,14.739,898.62597068516,153.215228,0.3131716,1.5791175046,0,0,-5.144962,202.8, 1.7, -3,0,0,1024,1024,1413,1024,203.7,-89.9,71,3.726,3.703,3.711,3.684,0,0,17.888,89.51,898.62597068516,153.215228,6,P-GPS,
51900,2019-10-04 17:50:21,38.4247553021862,-92.1275668965412,153.871396,,,899.28213868516,0,1.26535109036,16,5,14.739,899.28213868516,153.871396,0.3131716,1.5791175046,0,0,-5.144962,202.8, 1.9, -2.7,0,0,1024,1024,1413,1024,203.7,-89.9,71,3.726,3.703,3.711,3.684,0,0,17.888,89.51,899.28213868516,153.871396,6,P-GPS,
52000,2019-10-04 17:50:21,38.4247553570852,-92.127566910937,154.855648,,,900.26639068516,0,1.26455384624,16,5,14.739,900.26639068516,154.855648,0.3131716,1.5791175046,0,0,-5.144962,202.8, 2.2, -2.2,0,0,1024,1024,1414,1024,203.6,-89.9,71,3.726,3.703,3.711,3.684,0,0,17.888,89.51,900.26639068516,154.855648,6,P-GPS,
52100,2019-10-04 17:50:21,38.4247554799822,-92.1275669733207,155.8399,,,901.25064268516,0,1.27241801972,16,5,14.739,901.25064268516,155.8399,0.3131716,1.5791175046,0,0,-5.144962,202.8, 2.6, -2.4,0,0,1024,1024,1414,1024,203.6,-89.9,71,3.726,3.703,3.711,3.684,0,0,17.888,89.51,901.25064268516,155.8399,6,P-GPS,
52200,2019-10-04 17:50:21,38.4247555063825,-92.1275670076947,156.496068,,,901.90681068516,0,1.28022641892,16,5,14.739,901.90681068516,156.496068,0.3131716,1.5791175046,0,0,-5.144962,202.9, 3, -2.6,0,0,1024,1024,1412,1024,203.6,-89.9,71,3.726,3.703,3.711,3.684,0,0,17.888,89.51,901.90681068516,156.496068,6,P-GPS,
52300,2019-10-04 17:50:21,38.4247554863592,-92.1275670380719,157.152236,,,902.56297868516,0,1.29013127488,16,5,14.739,902.56297868516,157.152236,0.3131716,1.5791175046,0,0,-5.144962,203, 3.3, -3,0,0,1024,1024,1411,1024,203.6,-89.9,71,3.726,3.703,3.711,3.684,0,0,17.888,89.51,902.56297868516,157.152236,6,P-GPS,
52400,2019-10-04 17:50:21,38.4247554660557,-92.1275670499609,158.136488,,,903.54723068516,0,1.29489177372,16,5,14.739,903.54723068516,158.136488,0.3131716,1.5791175046,0,0,-5.144962,203, 3.1, -2.3,0,0,1024,1024,1413,1024,203.6,-89.9,71,3.726,3.703,3.711,3.684,0,0,17.888,89.51,903.54723068516,158.136488,6,P-GPS,
52500,2019-10-04 17:50:21,38.4247554656079,-92.1275670176892,158.792656,,,904.20339868516,0,1.28587930624,16,5,14.739,904.20339868516,158.792656,0.3131716,1.5791175046,0,0,-5.144962,203, 3.2, -2,0,0,1024,1024,1412,1024,203.6,-89.9,71,3.726,3.703,3.711,3.684,0,0,17.888,89.51,904.20339868516,158.792656,6,P-GPS,
52600,2019-10-04 17:50:21,38.424755435257,-92.1275669080174,159.776908,,,905.18765068516,0,1.25744098512,16,5,14.727,905.18765068516,159.776908,0.3131716,1.5791175046,0,0,-5.144962,202.9, 3.3, -2.4,0,0,1024,1024,1413,1024,203.6,-89.9,71,3.722,3.7,3.709,3.68,0,0,17.8,89.51,905.18765068516,159.776908,6,P-GPS,
52700,2019-10-04 17:50:21,38.424755436611,-92.1275669641245,160.433076,,,905.84381868516,0,1.27302169428,16,5,14.727,905.84381868516,160.433076,0.3131716,1.5791175046,0,0,-5.144962,202.8, 3.4, -3,0,0,1024,1024,1414,1024,203.6,-89.9,71,3.722,3.7,3.709,3.68,0,0,17.8,89.51,905.84381868516,160.433076,6,P-GPS,
52800,2019-10-04 17:50:21,38.4247554428415,-92.1275670102152,161.089244,,,906.49998668516,0,1.2854495162,16,5,14.727,906.49998668516,161.089244,0.3131716,1.5791175046,0,0,-5.144962,202.8, 3.2, -3.2,0,0,1024,1024,1413,1024,203.6,-89.9,71,3.722,3.7,3.709,3.68,0,0,17.8,89.51,906.49998668516,161.089244,6,P-GPS,
52900,2019-10-04 17:50:22,38.4247554524786,-92.12756701843,161.745412,,,907.15615468516,0,1.28703744276,16,5,14.727,907.15615468516,161.745412,0.3131716,1.5791175046,0,0,-5.144962,202.8, 3, -3.1,0,0,1024,1024,1416,1024,203.6,-89.9,71,3.722,3.7,3.709,3.68,0,0,17.8,89.51,907.15615468516,161.745412,6,P-GPS,
53000,2019-10-04 17:50:22,38.4247554389096,-92.1275670481976,162.729664,,,908.14040668516,0,1.29637143256,16,5,14.727,908.14040668516,162.729664,0.3131716,1.5791175046,0,0,-5.144962,202.8, 3.3, -2.7,0,0,1024,1024,1417,1024,203.6,-89.9,71,3.722,3.7,3.709,3.68,0,0,17.8,89.51,908.14040668516,162.729664,6,P-GPS,
53100,2019-10-04 17:50:22,38.4247554531984,-92.127567064641,163.385832,,,908.79657468516,0,1.29993114396,16,5,14.727,908.79657468516,163.385832,0.3131716,1.5791175046,0,0,-5.144962,202.9, 3.2, -2.6,0,0,1024,1024,1418,1024,203.6,-89.9,71,3.722,3.7,3.709,3.68,0,0,17.8,89.51,908.79657468516,163.385832,6,P-GPS,
53200,2019-10-04 17:50:22,38.4247554700373,-92.1275670722244,164.042,,,909.45274268516,0,1.30085306,16,5,14.727,909.45274268516,164.042,0.3131716,1.5791175046,0,0,-5.144962,202.9, 2.9, -2.4,0,0,1024,1024,1419,1024,203.6,-89.9,71,3.722,3.7,3.709,3.68,0,0,17.8,89.51,909.45274268516,164.042,6,P-GPS,
53300,2019-10-04 17:50:22,38.4247555150516,-92.1275670844496,165.026252,,,910.43699468516,0,1.3012139524,16,5,14.727,910.43699468516,165.026252,0.3131716,1.5791175046,0,0,-5.144962,202.8, 3, -2,0,0,1024,1024,1422,1024,203.6,-89.9,71,3.722,3.7,3.709,3.68,0,0,17.8,89.51,910.43699468516,165.026252,6,P-GPS,
53400,2019-10-04 17:50:22,38.4247556250684,-92.1275671561581,165.68242,,,911.09316268516,0,1.31483271924,16,5,14.727,911.09316268516,165.68242,0.3131716,1.5791175046,0,0,-5.144962,202.8, 3.4, -1.4,0,0,1024,1024,1426,1024,203.6,-89.9,71,3.722,3.7,3.709,3.68,0,0,17.8,89.51,911.09316268516,165.68242,6,P-GPS,
53500,2019-10-04 17:50:22,38.4247556585745,-92.1275671607645,166.666672,,,912.07741468516,0,1.31437996332,16,5,14.727,912.07741468516,166.666672,0.3131716,1.5791175046,0,0,-5.368656,202.9, 3.3, -2.3,0,0,1024,1024,1441,1024,203.6,-89.9,71,3.722,3.7,3.709,3.68,0,0,17.8,89.51,912.07741468516,166.666672,6,P-GPS,
53600,2019-10-04 17:50:22,38.4247557127821,-92.1275671766775,167.32284,,,912.73358268516,0,1.3162894122,16,5,14.71,912.73358268516,167.32284,0.3131716,1.5791175046,0,0,-5.144962,202.9, 2.7, -2.9,0,0,1024,1024,1440,1024,203.5,-89.9,71,3.727,3.705,3.714,3.685,0,0,17.622,89.51,912.73358268516,167.32284,6,P-GPS,
53700,2019-10-04 17:50:22,38.4247558064779,-92.1275672048103,167.979008,,,913.38975068516,0,1.32049872992,16,5,14.71,913.38975068516,167.979008,0.3131716,1.5791175046,0,0,-5.368656,202.9, 2.2, -3.2,0,0,1024,1024,1437,1024,203.5,-89.9,71,3.727,3.705,3.714,3.685,0,0,17.622,89.51,913.38975068516,167.979008,6,P-GPS,
53800,2019-10-04 17:50:22,38.4247559115484,-92.1275672158874,168.635176,,,914.04591868516,0,1.3204724832,16,5,14.71,914.04591868516,168.635176,0.3131716,1.5791175046,0,0,-5.59235,203, 1.5, -3.2,0,0,1024,1024,1435,1024,203.5,-89.9,71,3.727,3.705,3.714,3.685,0,0,17.622,89.51,914.04591868516,168.635176,6,P-GPS,
53900,2019-10-04 17:50:23,38.4247559971027,-92.1275672531318,169.619428,,,915.03017068516,0,1.32933731288,16,5,14.71,915.03017068516,169.619428,0.3131716,1.5791175046,0,0,-5.59235,202.9, 1.5, -3,0,0,1024,1024,1435,1024,203.5,-89.9,71,3.727,3.705,3.714,3.685,0,0,17.622,89.51,915.03017068516,169.619428,6,P-GPS,
54000,2019-10-04 17:50:23,38.4247560552854,-92.1275672885281,170.60368,,,916.01442268516,0,1.33867458352,16,5,14.71,916.01442268516,170.60368,0.3131716,1.5791175046,0,0,-5.816044,202.9, 2, -2.9,0,0,1024,1024,1451,1024,203.5,-89.9,71,3.727,3.705,3.714,3.685,0,0,17.622,89.51,916.01442268516,170.60368,6,P-GPS,
54100,2019-10-04 17:50:23,38.4247560682714,-92.1275673054854,171.587932,,,916.99867468516,0,1.34339571228,16,5,14.71,916.99867468516,171.587932,0.3131716,1.5791175046,0,0,-5.816044,202.9, 2.1, -3.2,0,0,1024,1024,1455,1024,203.5,-89.9,71,3.727,3.705,3.714,3.685,0,0,17.622,89.51,916.99867468516,171.587932,6,P-GPS,
